{
  "_meta": {
    "source": "https://nournestapartments.bookingsboom.com/api/booking/listings",
    "fetched": "2026-06-02T13:00Z",
    "count": 51,
    "url_pattern": "https://nournestapartments.bookingsboom.com/listing/{id}/{slug}?lang=en",
    "slug_rule": "nickname.replace(/\\s/g, '-')  e.g. 'Old St Basement - Anna' -> 'Old-St-Basement---Anna'",
    "image_host": "https://res.cloudinary.com/do4tedxg6/image/upload/.../tenants/NourNest/listings/{listing-slug}/pictures/...",
    "note": "Cloudinary images are separate from Kinsta. They survive Boostly offboard."
  },
  "listings": [
    {
      "id": 13537,
      "nickname": "Old St Basement - Anna",
      "beds": 1,
      "baths": 1,
      "guests": 4,
      "address": "Basement Flat 362-364 Old Street, London, EC1V 9LT UK",
      "area": "Old Street / Shoreditch",
      "lat": 51.527081,
      "lng": -0.079677
    },
    {
      "id": 13542,
      "nickname": "Shepherds Bush 2 - Anna",
      "beds": 2,
      "baths": 1,
      "guests": 6,
      "address": "51 Melrose Gardens, London W6 7RN, UK",
      "area": "Shepherd's Bush",
      "lat": 51.499856,
      "lng": -0.223793
    },
    {
      "id": 20579,
      "nickname": "Regents Flat F - Anna",
      "beds": 1,
      "baths": 1,
      "guests": 4,
      "address": "flat f, 85 Frampton St, London NW8 8NQ, UK",
      "area": "Regents Park / Maida Vale",
      "lat": 51.523873,
      "lng": -0.173816
    },
    {
      "id": 13536,
      "nickname": "New Malden - Szymon",
      "beds": 3,
      "baths": 1,
      "guests": 8,
      "address": "25 Cleveland Rd, New Malden Greater London, KT3 3QQ, UK",
      "area": "New Malden",
      "lat": 51.400618,
      "lng": -0.260073
    },
    {
      "id": 13527,
      "nickname": "Hoxton Flat 8 - Anna",
      "beds": 3,
      "baths": 1,
      "guests": 8,
      "address": "Flat 8, 52 Mintern St, London N1 5EG, UK",
      "area": "Hoxton",
      "lat": 51.532848,
      "lng": -0.086441
    },
    {
      "id": 19019,
      "nickname": "Baker St 2 - Szymon",
      "beds": 3,
      "baths": 3,
      "guests": 10,
      "address": "Flat 65-Bickenhall Mansions, Bickenhall St, London W1U 6BR",
      "area": "Marylebone / Baker Street",
      "lat": 51.521482,
      "lng": -0.158373
    },
    {
      "id": 14450,
      "nickname": "Regents Flat L - Anna",
      "beds": 1,
      "baths": 1,
      "guests": 4,
      "address": "Flat L, 85 Frampton St, London NW8 8NQ, UK",
      "area": "Regents Park / Maida Vale",
      "lat": 51.523873,
      "lng": -0.173816
    },
    {
      "id": 13523,
      "nickname": "Embankment - Lukasz",
      "beds": 2,
      "baths": 1,
      "guests": 5,
      "address": "Flat 12, 23A Villiers St, London WC2N 6AR, UK",
      "area": "Charing Cross / Embankment",
      "lat": 51.508292,
      "lng": -0.123887
    },
    {
      "id": 16033,
      "nickname": "Regents Flat E - Anna",
      "beds": 1,
      "baths": 1,
      "guests": 4,
      "address": "Flat E, 85 Frampton St, London NW8 8NQ, UK",
      "area": "Regents Park / Maida Vale",
      "lat": 51.523873,
      "lng": -0.173816
    },
    {
      "id": 13524,
      "nickname": "Farringdon - Anna",
      "beds": 2,
      "baths": 2,
      "guests": 8,
      "address": "Vermont House,Flat 307, 2 Dingley Rd, London EC1V 8DL",
      "area": "Farringdon / Clerkenwell",
      "lat": 51.527913,
      "lng": -0.095904
    },
    {
      "id": 15366,
      "nickname": "Edgware Rd - Szymon",
      "beds": 4,
      "baths": 2,
      "guests": 12,
      "address": "Flat 14, Grosvenor Court Mansions, Edgeware Road, W2 2JH",
      "area": "Edgware Road / Marylebone",
      "lat": 51.514689,
      "lng": -0.162711
    },
    {
      "id": 15367,
      "nickname": "88 Battersea - Anna",
      "beds": 3,
      "baths": 2,
      "guests": 10,
      "address": "Apartment 88, 70 York Rd, London SW11 3QF, UK",
      "area": "Battersea",
      "lat": 51.470087,
      "lng": -0.175504
    },
    {
      "id": 13525,
      "nickname": "Hammersmith - Szymon",
      "beds": 3,
      "baths": 2,
      "guests": 8,
      "address": "Hammersmith, London",
      "area": "Hammersmith",
      "lat": 51.4927,
      "lng": -0.2339
    },
    {
      "id": 14449,
      "nickname": "Pimlico - Szymon",
      "beds": 3,
      "baths": 2,
      "guests": 8,
      "address": "68C Lupus Street, Pimlico, Greater London, SW1V 3EQ, UK",
      "area": "Pimlico",
      "lat": 51.488075,
      "lng": -0.140188
    },
    {
      "id": 15369,
      "nickname": "London Bridge - Lukasz",
      "beds": 3,
      "baths": 2,
      "guests": 10,
      "address": "Flat 5, 28 Leathermarket St, London SE1 3FZ, UK",
      "area": "London Bridge",
      "lat": 51.50064,
      "lng": -0.085025
    },
    {
      "id": 17426,
      "nickname": "Crouch End - Anna",
      "beds": 4,
      "baths": 3,
      "guests": 13,
      "address": "2E Wolseley Rd, London N8 8RP, UK",
      "area": "Crouch End",
      "lat": 51.580514,
      "lng": -0.130223
    },
    {
      "id": 13539,
      "nickname": "Old St Flat 2 - Szymon",
      "beds": 1,
      "baths": 1,
      "guests": 4,
      "address": "362-364 Old Street Flat 2, London, EC1V 9LTUK",
      "area": "Old Street / Shoreditch",
      "lat": 51.527081,
      "lng": -0.079677
    },
    {
      "id": 19247,
      "nickname": "Regents Flat D - Anna",
      "beds": 1,
      "baths": 1,
      "guests": 4,
      "address": "flat d, 85 Frampton St, London NW8 8NQ, UK",
      "area": "Regents Park / Maida Vale",
      "lat": 51.523873,
      "lng": -0.173816
    },
    {
      "id": 13548,
      "nickname": "Hackney 1B - Szymon",
      "beds": 1,
      "baths": 1,
      "guests": 4,
      "address": "Flat 1, 23 Hackney Rd, London E2 7NX, UK",
      "area": "Hackney",
      "lat": 51.527763,
      "lng": -0.076822
    },
    {
      "id": 14447,
      "nickname": "Hoxton Flat 6 - Szymon",
      "beds": 3,
      "baths": 1,
      "guests": 8,
      "address": "Flat 6, 52 Mintern St, London N1 5EG, UK",
      "area": "Hoxton",
      "lat": 51.532848,
      "lng": -0.086441
    },
    {
      "id": 14452,
      "nickname": "Regents Flat W - Blaze",
      "beds": 1,
      "baths": 1,
      "guests": 4,
      "address": "Flat W, 85 Frampton St, London NW8 8NQ, UK",
      "area": "Regents Park / Maida Vale",
      "lat": 51.523873,
      "lng": -0.173816
    },
    {
      "id": 23718,
      "nickname": "Queens Park - Szymon",
      "beds": 1,
      "baths": 1,
      "guests": 5,
      "address": "264 Kilburn Ln, London W10 4BA, UK",
      "area": "Queens Park",
      "lat": 51.53229,
      "lng": -0.209424
    },
    {
      "id": 13543,
      "nickname": "Vauxhall - Anna",
      "beds": 2,
      "baths": 1,
      "guests": 6,
      "address": "Flat 1 Stoddart House, SW8 1NB",
      "area": "Vauxhall",
      "lat": 51.482715,
      "lng": -0.116526
    },
    {
      "id": 14446,
      "nickname": "Finsbury - Szymon",
      "beds": 1,
      "baths": 1,
      "guests": 4,
      "address": "Flat B, 105 Blackstock Rd, Finsbury Park, London N4 2JW",
      "area": "Finsbury Park",
      "lat": 51.562355,
      "lng": -0.100367
    },
    {
      "id": 15399,
      "nickname": "Euston #2 - Szymon - Flat 2",
      "beds": 1,
      "baths": 1,
      "guests": 4,
      "address": "1-6 Speedy Pl, London WC1H 8BS, UK",
      "area": "Euston / Kings Cross",
      "lat": 51.52765,
      "lng": -0.12423
    },
    {
      "id": 15409,
      "nickname": "Kings Cross - Anna",
      "beds": 3,
      "baths": 2,
      "guests": 10,
      "address": "29 Hill House Apartments, London",
      "area": "Kings Cross",
      "lat": 51.5308,
      "lng": -0.1238
    },
    {
      "id": 13540,
      "nickname": "Old St Flat 3 - Blaze",
      "beds": 1,
      "baths": 1,
      "guests": 4,
      "address": "Flat 3, 362-364 Old St, London EC1V 9LT, UK",
      "area": "Old Street / Shoreditch",
      "lat": 51.527081,
      "lng": -0.079677
    },
    {
      "id": 13541,
      "nickname": "Regents Flat 3 - Blaze",
      "beds": 3,
      "baths": 2,
      "guests": 10,
      "address": "flat 3, 85 Frampton St, London NW8 8NQ, UK",
      "area": "Regents Park / Maida Vale",
      "lat": 51.523873,
      "lng": -0.173816
    },
    {
      "id": 13538,
      "nickname": "Old St Flat 1 - Blaze",
      "beds": 1,
      "baths": 1,
      "guests": 4,
      "address": "Flat 1, 362-364 Old St, London EC1V 9LT, UK",
      "area": "Old Street / Shoreditch",
      "lat": 51.527081,
      "lng": -0.079677
    },
    {
      "id": 24106,
      "nickname": "63 King's Cross - Szymon",
      "beds": 3,
      "baths": 2,
      "guests": 8,
      "address": "flat 63, 98 Camley St, London N1C 4PF, UK",
      "area": "Kings Cross",
      "lat": 51.537815,
      "lng": -0.130633
    },
    {
      "id": 13532,
      "nickname": "Little Venice 2 - Blaze",
      "beds": 3,
      "baths": 2,
      "guests": 9,
      "address": "1 Callard Close, Greater London, W2 1AT,UK",
      "area": "Little Venice",
      "lat": 51.524138,
      "lng": -0.177006
    },
    {
      "id": 13516,
      "nickname": "Aldgate - Szymon",
      "beds": 3,
      "baths": 1,
      "guests": 8,
      "address": "flat 3, 143A Christian St, London E1 1RS, UK",
      "area": "Aldgate",
      "lat": 51.514214,
      "lng": -0.064422
    },
    {
      "id": 13517,
      "nickname": "Askew Road - Blaze",
      "beds": 2,
      "baths": 1,
      "guests": 7,
      "address": "flat a, 112 Askew Rd, London W12 9BL, UK",
      "area": "Shepherd's Bush",
      "lat": 51.502768,
      "lng": -0.243348
    },
    {
      "id": 13518,
      "nickname": "Atholl House - Szymon",
      "beds": 3,
      "baths": 3,
      "guests": 8,
      "address": "Flat 10, Atholl House, 125 Maida Vale, London W9 1UR, UK",
      "area": "Maida Vale",
      "lat": 51.528764,
      "lng": -0.182473
    },
    {
      "id": 13526,
      "nickname": "Holloway - Lukasz",
      "beds": 3,
      "baths": 2,
      "guests": 10,
      "address": "Ground Floor Flat, 34 Hartham Rd, London N7 9JL, UK",
      "area": "Holloway",
      "lat": 51.551231,
      "lng": -0.122726
    },
    {
      "id": 13530,
      "nickname": "Kensington - Blaze",
      "beds": 1,
      "baths": 2,
      "guests": 4,
      "address": "Ground Floor Flat, 154 Warwick Rd, Kensington, W14 8PS",
      "area": "Kensington",
      "lat": 51.495169,
      "lng": -0.202985
    },
    {
      "id": 13531,
      "nickname": "Little Venice 1 - Szymon",
      "beds": 4,
      "baths": 2,
      "guests": 11,
      "address": "4 Callard Close, Greater London, W2 1AT, UK",
      "area": "Little Venice",
      "lat": 51.524138,
      "lng": -0.177006
    },
    {
      "id": 13533,
      "nickname": "Liverpool Rd - Lukasz",
      "beds": 1,
      "baths": 1,
      "guests": 4,
      "address": "391 Liverpool Rd, London N1 1NP, UK",
      "area": "Angel / Islington",
      "lat": 51.544933,
      "lng": -0.107943
    },
    {
      "id": 13535,
      "nickname": "163 New Kent Rd - Blaze",
      "beds": 1,
      "baths": 1,
      "guests": 4,
      "address": "163 New Kent Road, Greater London, SE1 4AG, UK",
      "area": "Elephant & Castle",
      "lat": 51.494326,
      "lng": -0.092119
    },
    {
      "id": 13546,
      "nickname": "Maida Vale - Szymon",
      "beds": 2,
      "baths": 1,
      "guests": 6,
      "address": "Flat 3, 69 Clifton Hill, London NW8 0JN, UK",
      "area": "Maida Vale",
      "lat": 51.536011,
      "lng": -0.184145
    },
    {
      "id": 13547,
      "nickname": "Green Lanes - Szymon",
      "beds": 3,
      "baths": 1,
      "guests": 9,
      "address": "Flat 4, Patten House, Green Lanes, London N4 2NY, UK",
      "area": "Finsbury Park / Green Lanes",
      "lat": 51.56632,
      "lng": -0.092583
    },
    {
      "id": 13550,
      "nickname": "Kilburn - Blaze",
      "beds": 4,
      "baths": 2,
      "guests": 10,
      "address": "116 Webheath, Netherwood Street NW6 2JS",
      "area": "Kilburn / West Hampstead",
      "lat": 51.545013,
      "lng": -0.199925
    },
    {
      "id": 14451,
      "nickname": "Regents Flat N - Blaze",
      "beds": 1,
      "baths": 1,
      "guests": 4,
      "address": "Flat N, 85 Frampton St, London NW8 8NQ, UK",
      "area": "Regents Park / Maida Vale",
      "lat": 51.523873,
      "lng": -0.173816
    },
    {
      "id": 14554,
      "nickname": "Shepherd's Bush - Blaze",
      "beds": 2,
      "baths": 1,
      "guests": 6,
      "address": "Flat 3, 9 Netherwood Rd, Greater, London W14 0BL, UK",
      "area": "Shepherd's Bush",
      "lat": 51.500731,
      "lng": -0.220978
    },
    {
      "id": 15398,
      "nickname": "Euston # 1 - Lukasz - Flat 1",
      "beds": 1,
      "baths": 1,
      "guests": 4,
      "address": "1-6 Speedy Pl, London WC1H 8BS, UK",
      "area": "Euston / Kings Cross",
      "lat": 51.52765,
      "lng": -0.12423
    },
    {
      "id": 22479,
      "nickname": "Russell Square flat 34 - Szymon",
      "beds": 2,
      "baths": 2,
      "guests": 6,
      "address": "Flat 34, Penny House, 62 Calthorpe St, London WC1X 0FD, UK",
      "area": "Russell Square / Bloomsbury",
      "lat": 51.52577,
      "lng": -0.113567
    },
    {
      "id": 23839,
      "nickname": "Regents Flat M - Szymon",
      "beds": 1,
      "baths": 1,
      "guests": 4,
      "address": "Flat M, 85 Frampton St, London NW8 8NQ, UK",
      "area": "Regents Park / Maida Vale",
      "lat": 51.523873,
      "lng": -0.173816
    },
    {
      "id": 24600,
      "nickname": "Tower Hill - Szymon",
      "beds": 2,
      "baths": 2,
      "guests": 6,
      "address": "Flat 103 18 Dock St, London E1 8QW, UK",
      "area": "Tower Hill",
      "lat": 51.51007,
      "lng": -0.068388
    },
    {
      "id": 26277,
      "nickname": "Green Lanes - Szymon - Dup",
      "beds": 3,
      "baths": 1,
      "guests": 9,
      "address": "Flat 4, Patten House, Green Lanes, London N4 2NY, UK",
      "area": "Finsbury Park / Green Lanes",
      "note": "duplicate of 13547",
      "lat": 51.56632,
      "lng": -0.092583
    },
    {
      "id": 26216,
      "nickname": "Shoreditch flat 5 - Szymon",
      "beds": 4,
      "baths": 3,
      "guests": 10,
      "address": "223 Shoreditch High St, London E1 6PJ, UK",
      "area": "Shoreditch",
      "lat": 51.522444,
      "lng": -0.078229
    },
    {
      "id": 26276,
      "nickname": "MAYFAIR 2BED",
      "beds": 2,
      "baths": 1,
      "guests": 7,
      "address": "5 Balfour Pl, London W1K 2AU, UK",
      "area": "Mayfair",
      "lat": 51.509254,
      "lng": -0.152237
    }
  ]
}